,City,Cloudy,Country,Date,Humidity,Latitude,Longitude,Max Temp,Wind Speed
0,New Norfolk,1,AU,1567710177,93,-42.78,147.06,45,6.93
1,Mugur-Aksy,60,RU,1567710179,95,50.38,90.44,28.58,1.41
3,Tuktoyaktuk,20,CA,1567710181,87,69.44,-133.03,46.4,3.36
4,Atuona,1,PF,1567710182,75,-9.8,-139.03,78.62,11.34
5,Ribeira Grande,40,PT,1567709926,73,38.52,-28.7,73.4,10.29
6,Albany,1,US,1567710185,60,42.65,-73.75,72,3.36
7,Naze,100,NG,1567709752,95,5.43,7.07,74.9,4.45
8,Shalakusha,100,RU,1567710188,84,62.23,40.26,52.88,4.59
9,Cape Town,0,ZA,1567709921,67,-33.93,18.42,62.01,9.17
10,Butaritari,96,KI,1567710191,70,3.07,172.79,84.56,9.69
11,Yellowknife,90,CA,1567710192,93,62.45,-114.38,48.2,2.24
12,Puerto Ayora,0,EC,1567710194,61,-0.74,-90.35,78.8,12.75
13,Grand Gaube,40,MU,1567710195,73,-20.01,57.66,71.6,4.7
14,Shelburne,1,CA,1567710005,35,44.08,-80.2,73.99,6.93
16,Dzhebariki-Khaya,0,RU,1567710198,94,62.22,135.8,36.14,2.57
17,Camacha,75,PT,1567709806,73,33.08,-16.33,73.4,16.11
18,Floro,75,NO,1567710184,81,61.6,5.03,48.2,16.11
19,Tasiilaq,75,GL,1567710202,61,65.61,-37.64,48.2,6.93
20,Makat,0,KZ,1567710204,36,47.65,53.35,66.92,7.18
21,Punta Arenas,0,CL,1567710206,80,-53.16,-70.91,41,8.05
22,Kodiak,1,US,1567710207,58,39.95,-94.76,91,11.41
23,Goundi,91,TD,1567710208,93,9.36,17.37,74.66,3.76
26,Viransehir,0,TR,1567710211,26,37.24,39.76,77.36,5.32
27,Severo-Kurilsk,100,RU,1567710212,94,50.68,156.12,50.9,16.44
28,Rikitea,75,PF,1567709980,82,-23.12,-134.97,68.54,14.81
29,Hobart,1,AU,1567710029,93,-42.88,147.33,45,6.93
30,Souillac,0,FR,1567710217,42,45.6,-0.6,66.2,9.17
31,Santa Rosa,100,AR,1567710218,36,-36.62,-64.29,55.22,19.19
32,Ambulu,100,ID,1567710220,87,-8.35,113.61,73.04,6.31
33,Hami,79,CN,1567710065,32,42.84,93.51,72.32,22.44
34,Hobyo,13,SO,1567710223,81,5.35,48.53,77.36,27.27
35,Koumac,0,NC,1567710224,70,-20.56,164.28,68.9,15.77
36,Laukaa,75,FI,1567710226,93,62.42,25.95,59,8.05
37,Dikson,100,RU,1567709994,99,73.51,80.55,42.62,2.06
38,Shakhtinsk,0,KZ,1567710229,71,49.71,72.59,50,11.18
40,Santa Cruz Cabralia,20,BR,1567710231,69,-16.28,-39.02,78.8,8.05
41,Half Moon Bay,5,US,1567710233,64,37.46,-122.43,75,9.17
42,Busselton,0,AU,1567710235,61,-33.64,115.35,41,7.09
43,Saint George,20,GR,1567710236,60,39.45,22.34,78.01,10.29
44,Gondomar,0,ES,1567710238,52,42.11,-8.76,72,12.75
45,Castro,0,CL,1567710239,52,-42.48,-73.76,50,10.29
46,Kieta,67,PG,1567710029,79,-6.22,155.63,76.64,9.35
47,Kaduqli,100,SD,1567710242,83,11.01,29.72,70.7,3.13
49,Viedma,100,AR,1567710244,54,-40.81,-62.99,48.2,13.91
51,Puerto Salgar,26,CO,1567710246,45,5.46,-74.66,84.2,5.26
52,Lagoa,0,PT,1567710247,83,37.14,-8.45,77,4.7
53,Hithadhoo,87,MV,1567710248,79,-0.6,73.08,83.12,14.67
54,Ponta do Sol,0,BR,1567710250,29,-20.63,-46,88.34,5.99
55,Ushuaia,0,AR,1567710049,82,-54.81,-68.31,41,16.11
56,Hermanus,0,ZA,1567709998,81,-34.42,19.24,61,14
57,Sao Filipe,40,CV,1567710254,84,14.9,-24.5,79.34,15.84
58,Bredasdorp,63,ZA,1567710256,67,-34.53,20.04,57.2,12.75
59,Torbay,75,CA,1567709542,73,47.66,-52.73,75.2,14.99
60,Lebu,95,ET,1567710259,81,8.96,38.73,58.82,3.2
61,Isangel,20,VU,1567710260,82,-19.55,169.27,62.6,16.37
62,Guerrero Negro,0,MX,1567710261,77,27.97,-114.04,74.66,6.42
63,Qaanaaq,15,GL,1567710263,54,77.48,-69.36,32.9,7.54
64,Nikolskoye,0,RU,1567710265,72,59.7,30.79,59,6.71
65,Jamestown,34,AU,1567710266,87,-33.21,138.6,42.08,14.74
66,Bluff,0,AU,1567710267,30,-23.58,149.07,58.46,3.42
67,Tura,2,RU,1567710269,84,64.27,100.22,32.9,1.03
68,Vaini,100,IN,1567710270,94,15.34,74.49,75.56,6.55
69,Sobolevo,0,RU,1567710272,72,54.43,31.9,54.32,1.95
70,Ewa Beach,1,US,1567710273,58,21.32,-158.01,87.8,10.29
72,Tarata,40,PE,1567710275,68,-17.47,-70.03,66.2,5.82
73,East London,20,ZA,1567710199,58,-33.02,27.91,59,10.29
74,Chernyshevskiy,100,RU,1567710278,93,63.01,112.47,44.42,8.57
75,Portland,20,US,1567709830,55,43.66,-70.25,75,8.05
76,Sinnamary,23,GF,1567710077,77,5.38,-52.96,82.58,18.99
77,Jalu,0,LY,1567709877,46,29.03,21.55,84.98,17.9
78,La Romana,75,DO,1567710032,59,18.43,-68.97,91.4,11.41
79,Khomutovo,27,RU,1567710285,62,52.85,37.45,64.22,7.45
80,Quebrada de Arena,0,HN,1567710287,76,15.77,-85.92,82.94,19.06
81,Buala,47,SB,1567710037,84,-8.15,159.59,76.82,15.59
82,Richards Bay,100,ZA,1567710290,77,-28.77,32.06,67.28,20.36
83,Kapaa,75,US,1567710291,66,22.08,-159.32,86,18.34
84,Avarua,81,CK,1567710276,73,-21.21,-159.78,73.4,18.34
85,Mount Gambier,90,AU,1567710294,93,-37.83,140.78,44.6,9.17
86,Ferme-Neuve,61,CA,1567710296,44,46.7,-75.45,66.02,9.01
87,Tilichiki,50,RU,1567710297,81,60.47,166.1,39.38,1.68
88,Morant Bay,40,JM,1567710299,62,17.88,-76.41,89.6,23.04
89,Katsuura,75,JP,1567710086,88,33.93,134.5,78.8,8.05
90,Georgetown,20,GY,1567710161,55,6.8,-58.16,93.2,13.87
91,San Vicente,20,EC,1567710303,73,-0.59,-80.41,77,6.93
92,Mataura,100,NZ,1567710205,93,-46.19,168.86,46,1.01
93,Cairns,34,AU,1567710292,76,-16.92,145.77,53.6,1.81
94,Leningradskiy,92,RU,1567710307,92,69.38,178.42,39.38,1.88
95,Pangnirtung,75,CA,1567710309,81,66.15,-65.72,46.4,12.75
96,Kahului,20,US,1567710311,66,20.89,-156.47,84.2,10.29
97,Zhukovka,0,RU,1567710312,82,55.51,37.29,63,2.24
98,Sarangani,100,PH,1567710313,79,5.4,125.46,82.22,7.49
99,Hilo,75,US,1567710315,66,19.71,-155.08,84.2,3.36
101,Chokurdakh,69,RU,1567710317,86,70.62,147.9,34.34,7.65
102,Aswan,0,EG,1567710051,20,24.09,32.9,95,2.24
103,Pompeu,0,BR,1567710320,35,-21.05,-48.85,89.6,5.82
104,Ostrovnoy,83,RU,1567710321,80,68.05,39.51,54.86,20.51
105,Paranapanema,74,BR,1567710269,71,-23.39,-48.72,63.86,17.96
107,Harlingen,22,NL,1567710325,66,53.18,5.41,57.2,11.41
109,Arraial do Cabo,75,BR,1567710326,93,-22.97,-42.02,66.2,11.41
110,Nampula,0,MZ,1567710328,83,-15.12,39.26,71.6,10.29
111,Port Alfred,96,ZA,1567710272,64,-33.59,26.89,60.01,5.01
112,Itaituba,40,BR,1567710331,53,-4.26,-55.99,95,9.17
113,Prosec,0,CZ,1567710333,60,49.81,16.12,68,3.36
114,Praia da Vitoria,75,PT,1567709927,78,38.73,-27.07,71.6,19.64
115,Tommot,92,RU,1567710336,87,58.97,126.27,46.76,2.68
116,Rio Gallegos,0,AR,1567709722,40,-51.62,-69.22,51.8,5.82
117,Faanui,60,PF,1567709542,82,-16.48,-151.75,76.52,23.96
118,Tiksi,99,RU,1567709938,90,71.64,128.87,38.72,2.71
119,Puerto Maldonado,50,PE,1567710198,31,-12.59,-69.19,92.84,4.74
120,Yen Bai,77,VN,1567710343,76,21.7,104.87,74.66,1.72
121,Cayenne,0,GF,1567710345,66,4.94,-52.33,87.8,14.99
122,Mitu,0,IR,1567710346,22,36.2,46.09,67.28,8.9
123,Kavieng,95,PG,1567709890,76,-2.57,150.8,80.84,6.31
124,Saint-Philippe,20,CA,1567710349,43,45.36,-73.48,71.01,14.99
125,Barrow,100,AR,1567710350,47,-38.31,-60.23,50,9.35
126,Puerto Ayacucho,40,CO,1567710352,78,5.66,-67.63,80.6,10.29
127,Sitka,0,US,1567709832,31,37.17,-99.65,97,15.01
128,Buluang,75,PH,1567710355,83,10.47,123.98,80.6,5.82
129,Colac,88,AU,1567710356,98,-38.34,143.59,50,1.23
130,Lavrentiya,92,RU,1567710358,95,65.58,-170.99,43.52,5.64
131,Paragominas,70,BR,1567710359,48,-3,-47.35,90.32,3.62
132,Komsomolskiy,59,RU,1567710361,79,67.55,63.78,53.06,9.95
133,Carnarvon,0,ZA,1567710362,54,-30.97,22.13,52.7,24.74
134,Buckeye,1,US,1567710364,29,33.37,-112.58,107.01,4.7
135,Mar del Plata,90,AR,1567710365,51,-46.43,-67.52,41.72,16.4
138,Belmonte,0,PT,1567710368,25,40.36,-7.35,82.99,10.22
139,Barnala,0,IN,1567710369,72,30.38,75.54,81.86,6.64
140,Chuy,72,UY,1567710218,64,-33.69,-53.46,50.18,9.46
141,Coihaique,90,CL,1567710372,89,-45.58,-72.07,44.6,8.05
143,Norman Wells,90,CA,1567710374,100,65.28,-126.83,50,2.24
144,Port Elizabeth,75,US,1567710376,64,39.31,-74.98,79,6.93
145,Bambous Virieux,40,MU,1567710377,73,-20.34,57.76,71.6,4.7
146,Pecos,40,US,1567710379,31,31.42,-103.49,91.4,10.29
147,Goure,56,NE,1567710381,54,13.98,10.27,89.01,11.61
148,Okhotsk,7,RU,1567710382,58,59.36,143.24,50.54,13.18
150,Port Augusta,64,AU,1567710384,66,-32.49,137.76,51.8,12.75
151,Ballina,75,IE,1567710386,81,54.11,-9.15,57.99,16.11
152,Jiwani,53,PK,1567710388,79,25.05,61.74,83.48,6.02
153,Esperance,75,AU,1567709887,80,-33.86,121.89,41,8.05
154,Vardo,40,US,1567710390,60,39.62,-77.74,78.01,6.93
155,Bandarbeyla,56,SO,1567710392,76,9.49,50.81,76.1,25.99
156,Granville,75,FR,1567710393,58,48.84,-1.6,59,10.29
158,Sorland,75,NO,1567710396,93,67.67,12.69,46.4,8.05
159,Zonguldak,0,TR,1567710397,78,41.25,31.83,72.86,18.61
160,Troitsko-Pechorsk,46,RU,1567710398,84,62.71,56.19,53.78,3.8
161,Port Lincoln,98,AU,1567710400,73,-34.72,135.86,55.04,39.3
162,Ixtapa,5,MX,1567710401,66,20.71,-105.21,90,4.7
163,Bethel,90,US,1567710245,87,60.79,-161.76,51.8,16.11
164,Monrovia,75,LR,1567710404,94,6.33,-10.8,78.8,3.36
166,ChengDe,0,CN,1567710406,67,40.97,117.93,61.88,2.08
168,Chibombo,0,ZM,1567710408,18,-14.68,28.09,68.9,7.49
169,Cidreira,20,BR,1567710409,52,-30.17,-50.22,60.08,10.92
170,Deputatskiy,88,RU,1567710411,79,69.3,139.9,35.24,3.67
171,Chapais,40,CA,1567710412,53,49.78,-74.86,51.8,12.75
172,Rawson,100,AR,1567710414,52,-43.3,-65.11,44.42,17.96
173,Emmett,1,US,1567710416,26,43.87,-116.5,95,6.93
175,Huarmey,76,PE,1567710418,90,-10.07,-78.15,60.44,11.88
176,Khatanga,100,RU,1567709913,95,71.98,102.47,49.88,12.01
177,Padang,20,ID,1567710219,84,-0.92,100.36,81.14,17.69
178,Port Blair,100,IN,1567710422,81,11.67,92.75,81.86,25.61
180,Bandiagara,20,ML,1567710424,70,14.35,-3.61,87.8,6.93
181,Seoul,75,KR,1567710426,106,37.57,126.98,71.6,3.36
183,Kikwit,80,CD,1567710428,44,-5.04,18.82,85.64,2.26
185,Lundazi,13,ZM,1567710430,44,-12.29,33.17,69.8,10.22
187,Pedernales,92,EC,1567710432,86,0.07,-80.05,70.88,11.97
188,Kayes,40,ML,1567710433,66,14.44,-11.44,89.6,4.7
189,Westport,1,US,1567710060,56,41.14,-73.36,73.99,4.7
190,Narsaq,75,GL,1567710436,50,60.91,-46.05,51.8,2.24
191,Saint-Augustin,75,CA,1567710438,49,45.63,-73.98,70,8.05
192,Sicuani,68,PE,1567710439,34,-14.27,-71.23,54.14,15.08
193,Petropavlovsk-Kamchatskiy,20,RU,1567710441,93,53.05,158.65,46.4,8.95
194,Nancha,35,CN,1567710442,95,47.14,129.26,61.7,3.74
195,Yar-Sale,0,RU,1567709925,80,66.83,70.83,52.58,13.69
197,Kloulklubed,75,PW,1567710446,88,7.04,134.26,78.8,10.29
198,Provideniya,60,RU,1567710469,97,64.42,-173.23,42.98,2.71
199,Conakry,0,GN,1567710470,86,9.52,-13.7,79.34,11.32
200,Port Moresby,9,PG,1567710472,73,-9.47,147.16,73.58,18.01
201,Riyadh,0,SA,1567710249,16,24.63,46.72,98.6,5.82
202,North Highlands,1,US,1567710280,42,38.69,-121.37,91,9.17
204,Ejido,80,VE,1567710476,74,8.55,-71.24,75.2,4.68
205,Vila Franca do Campo,75,PT,1567710478,77,37.72,-25.43,71.01,10.29
206,Bakchar,11,RU,1567710479,96,57.02,82.07,44.78,4.32
207,Poum,40,MK,1567710480,55,41.28,20.71,66.2,2.24
208,Nilanga,99,IN,1567710482,85,18.12,76.75,73.58,19.66
209,La Ronge,90,CA,1567710484,87,55.1,-105.3,59,13.87
210,Pisco,75,PE,1567710485,30,-13.71,-76.2,71.6,6.93
211,Thompson,90,CA,1567710347,57,55.74,-97.86,50,3.36
212,Rocha,44,UY,1567710488,66,-34.48,-54.34,49.28,11.43
213,Meulaboh,90,ID,1567710489,81,4.14,96.13,82.94,8.52
214,Coquimbo,75,CL,1567710491,58,-29.95,-71.34,59,10.29
215,Benjamin Constant,0,BR,1567710493,62,-4.38,-70.03,86,4.7
216,Buraydah,20,SA,1567710494,22,26.33,43.97,100.4,9.17
218,Lubango,32,AO,1567710496,88,-14.92,13.49,63.68,4.41
220,Gat,40,SN,1567710498,83,14.69,-16.54,86,10.29
221,Broome,20,GB,1567710499,55,52.47,1.45,60.8,6.93
224,Tazovskiy,97,RU,1567710502,81,67.47,78.7,49.64,10.65
225,Eskisehir,20,TR,1567710503,56,39.78,30.52,70,8.05
226,Kulaman,100,PH,1567710505,83,6.46,124.09,78.44,3.87
227,Tabou,91,CI,1567710506,88,4.42,-7.36,76.28,7.05
228,Saint-Pierre,0,FR,1567710508,62,48.95,4.24,60.8,11.41
229,Lorengau,100,PG,1567710509,84,-2.02,147.27,77,5.95
230,Kalmunai,97,LK,1567710511,77,7.42,81.82,77.72,3.15
231,Newcastle,9,AU,1567710302,93,-32.93,151.78,57.99,5.82
232,Luderitz,0,NA,1567710514,38,-26.65,15.16,75.2,14.99
233,Sibolga,56,ID,1567710515,83,1.74,98.78,82.22,13.6
234,Scranton,1,US,1567710501,52,41.41,-75.66,73.99,4.5
236,Geraldton,90,CA,1567710518,100,49.72,-86.95,48.2,5.82
237,Buenos Aires,20,AR,1567710026,61,-34.61,-58.44,55,17.22
238,Tete,0,MZ,1567710521,23,-16.16,33.59,84.2,12.75
239,Kavaratti,82,IN,1567710523,82,10.57,72.64,82.4,17.96
240,Scarborough,55,GB,1567710524,67,54.28,-0.41,60.8,14.99
242,Homestead,75,US,1567710526,74,25.47,-80.48,91.99,10.29
243,Aliwal North,51,ZA,1567710527,80,-30.69,26.71,44.42,14.94
244,Araguaina,79,BR,1567710304,33,-7.19,-48.21,95.54,6.55
245,Nemuro,100,JP,1567710530,89,43.32,145.57,63.32,12.41
246,Longyearbyen,75,NO,1567710532,80,78.22,15.63,33.8,9.17
247,Boyolangu,100,ID,1567710533,93,-8.09,111.9,64.94,4
248,Maturin,97,VE,1567710472,75,9.75,-63.18,83.48,2.98
249,Hasaki,40,JP,1567710536,100,35.73,140.83,73.4,2.24
250,Xining,76,CN,1567710537,79,36.62,101.77,50.72,3.38
251,Upernavik,39,GL,1567710539,81,72.79,-56.15,41,3.11
252,Shambu,91,ET,1567710540,91,9.57,37.1,57.92,1.41
253,Kidal,20,ML,1567710542,18,18.44,1.41,102.56,10.09
254,Namatanai,89,PG,1567710543,86,-3.66,152.44,76.64,18.3
255,Dingle,100,PH,1567710545,85,11,122.67,74.84,4.63
256,Yichang,3,CN,1567710546,85,30.77,111.32,64.94,3.33
257,College,75,US,1567710548,76,64.86,-147.8,55.4,3.36
258,Alice Springs,46,AU,1567710549,31,-23.7,133.88,64.4,9.17
259,San Patricio,100,PY,1567710049,54,-26.98,-56.83,65.12,7.94
260,Kungurtug,100,RU,1567710552,95,50.6,97.53,43.16,1.28
261,Karratha,0,AU,1567710554,60,-20.74,116.85,60.8,9.89
262,Kaitangata,100,NZ,1567710555,76,-46.28,169.85,46,4
263,Keffi,70,NG,1567710557,85,8.85,7.88,75.74,2.01
264,Kudahuvadhoo,65,MV,1567710022,74,2.67,72.89,83.84,8.57
265,Lamar,1,US,1567710560,15,38.09,-102.62,96.8,6.93
266,Nanortalik,100,GL,1567710561,73,60.14,-45.24,42.26,2.24
267,Touros,20,BR,1567710562,65,-5.2,-35.46,82.4,14.99
268,Hede,8,SE,1567710564,71,60.45,15.49,53.01,6.93
269,Mezen,78,RU,1567710566,79,65.85,44.24,54.68,10.22
270,Jilin,100,CN,1567710567,90,43.84,126.54,66.92,2.95
271,Kayerkan,75,RU,1567710569,93,69.35,87.76,50,11.18
272,Mokolo,86,CM,1567710570,71,10.74,13.8,80.42,2.37
273,Flinders,74,AU,1567710569,100,-34.58,150.85,61,5.82
274,Batemans Bay,83,AU,1567710573,95,-35.71,150.18,53.01,1.99
275,Constitucion,75,MX,1567710575,52,23.99,-104.67,72,2.24
277,Zaysan,0,KZ,1567710577,50,47.47,84.87,56.3,5.75
278,Kutum,50,SD,1567710578,53,14.2,24.66,80.78,21.77
279,Sankt Florian,75,DE,1567710580,93,47.82,12.3,55.99,9.17
281,Zhigansk,21,RU,1567710582,95,66.77,123.37,38.84,8.41
282,Fare,53,PF,1567710583,82,-16.7,-151.02,75.38,22.93
283,Saint Anthony,1,US,1567710472,28,43.97,-111.68,86,4.7
284,Gold Coast,0,AU,1567710455,93,-28,153.41,55,3.36
285,Tynda,2,RU,1567710587,92,55.15,124.74,43.7,1.5
286,Neryungri,82,RU,1567710589,86,56.66,124.71,43.52,5.57
287,Saskylakh,100,RU,1567710590,82,71.97,114.09,39.38,15.73
288,Saldanha,0,PT,1567710592,27,41.42,-6.55,74.66,13.11
289,Ranghulu,77,CN,1567710593,80,46.63,124.88,67.64,2.46
290,Mindelo,0,PT,1567710595,28,41.31,-8.72,84.2,8.05
291,Jumla,92,NP,1567710057,98,29.28,82.18,54.86,3.15
292,Shingu,56,JP,1567710597,98,33.72,135.99,67.28,5.46
293,Coruripe,11,BR,1567710599,65,-10.12,-36.18,79.7,10.78
294,Hit,0,IQ,1567710600,21,33.64,42.83,88.88,8.39
296,Znamenskoye,36,RU,1567710602,92,57.13,73.82,46.76,6.42
297,Bafoulabe,29,ML,1567710430,64,13.81,-10.83,89.78,1.54
298,Adrar,90,DZ,1567710557,16,27.87,-0.29,100.4,49.44
299,Zwedru,86,LR,1567710607,92,6.07,-8.13,75.74,5.73
300,Auki,22,NG,1567710608,76,12.18,6.51,80.78,6.85
301,Barra do Garcas,0,BR,1567710610,19,-15.89,-52.26,104,11.41
303,Lompoc,75,US,1567710435,87,34.64,-120.46,91,6.93
304,Cooma,60,AU,1567710613,100,-36.24,149.13,37.4,8.05
305,Grindavik,75,IS,1567710615,93,63.84,-22.43,53.6,8.05
306,Orasac,0,RS,1567710616,60,43.06,22.07,69.8,1.12
307,Quatre Cocos,40,MU,1567710512,73,-20.21,57.76,71.6,4.7
308,Carutapera,26,BR,1567710619,62,-1.2,-46.02,84.56,10.18
309,Tomigusuku,75,JP,1567710620,88,26.18,127.67,80.6,28.86
311,Bathsheba,20,BB,1567710622,70,13.22,-59.52,87.8,8.05
312,Ferrol,75,ES,1567710624,68,43.48,-8.23,66.99,11.41
313,Rio Grande,40,BR,1567710625,58,-32.03,-52.1,59,13.87
314,Srednekolymsk,99,RU,1567710627,70,67.46,153.71,40.46,8.84
315,Callaway,75,US,1567710628,73,46.98,-95.91,73.4,9.17
316,Bridlington,20,GB,1567710630,63,54.08,-0.19,60.8,12.75
317,Cherskiy,0,RU,1567710631,75,68.75,161.3,38.3,6.98
319,Luwuk,97,ID,1567710633,98,-0.95,122.79,63.14,3.2
320,Luanda,20,AO,1567710634,94,-8.83,13.24,71.6,6.93
321,Rock Sound,0,BS,1567710636,79,24.9,-76.2,84.02,11.45
322,Beyneu,0,KZ,1567710638,33,45.32,55.19,64.94,6.64
323,Ancud,0,CL,1567710639,61,-41.87,-73.83,50,10.29
324,Uzunovo,0,BG,1567710641,53,41.84,25.1,75.2,10.29
325,Bikin,6,RU,1567710642,96,46.82,134.25,59.36,6.35
326,Clyde River,75,CA,1567710644,81,70.47,-68.59,42.8,8.05
327,Marmande,0,FR,1567710645,45,44.5,0.16,66.2,5.82
328,Tiarei,75,PF,1567710059,69,-17.53,-149.33,78.8,4.7
329,Nadym,84,RU,1567710648,75,65.53,72.51,54.32,13.22
332,Vestmanna,75,FO,1567710650,93,62.16,-7.17,50,5.82
333,Airai,95,TL,1567710652,85,-8.93,125.41,66.56,4.07
334,Tchollire,92,CM,1567710653,82,8.4,14.17,76.1,1.5
335,Yarkovo,0,RU,1567710655,93,54.81,82.6,44.6,4.47
336,Champerico,20,MX,1567710656,52,16.38,-93.6,87.8,3.36
337,Majene,25,ID,1567710479,81,-3.54,118.97,80.24,15.77
338,Black River,20,JM,1567710659,74,18.03,-77.85,87.8,13.87
339,Nouadhibou,39,MR,1567710661,61,20.93,-17.03,80.6,13.87
340,Beringovskiy,99,RU,1567710662,95,63.05,179.32,42.26,1.39
341,Turukhansk,86,RU,1567710664,76,65.8,87.96,48.56,3.71
342,Goderich,0,CA,1567710665,50,43.74,-81.71,72,10
343,Maningrida,0,AU,1567710666,94,-12.05,134.23,63.14,7.2
344,Lakselv,75,NO,1567710668,93,70.05,24.96,50,6.93
345,Taltal,0,CL,1567710582,65,-25.41,-70.49,57.92,8.28
347,Horn Lake,1,US,1567710672,55,34.96,-90.03,91,12.75
348,Khrebtovaya,72,RU,1567710673,96,56.71,104.25,44.96,7.7
353,Bilibino,72,RU,1567710676,74,68.06,166.44,35.6,4.65
354,Kampene,34,CD,1567710678,66,-3.59,26.67,75.92,2.21
355,Parana,75,BR,1567710679,74,-7.52,-72.89,84.2,3.36
356,Pemberton,0,AU,1567710681,95,-34.44,116.03,35.01,3.49
357,Peterhead,75,AU,1567710682,81,-34.83,138.5,53.6,24.16
358,Oriximina,88,BR,1567710684,41,-1.77,-55.87,96.08,6.08
360,Salalah,75,OM,1567710686,88,17.01,54.1,80.6,6.93
362,Oneonta,0,US,1567710688,56,42.45,-75.06,71.01,4
363,Kijang,40,KR,1567710690,88,35.24,129.21,75.2,2.24
364,Kajaani,75,FI,1567710691,77,64.22,27.73,59,16.11
366,Tuatapere,84,NZ,1567710532,93,-46.13,167.69,46,1.01
367,Jacmel,20,HT,1567710694,66,18.24,-72.54,90,13.87
368,Charlottesville,90,US,1567710472,61,38.03,-78.48,81,13.87
369,Berlevag,100,NO,1567710697,77,70.86,29.09,50.9,5.7
370,Danshui,0,CN,1567710699,83,22.81,114.46,82.99,6.71
371,Kruisfontein,93,ZA,1567710700,78,-34,24.73,51.44,10.13
373,Yima,0,CN,1567710702,57,34.75,111.87,63.32,3.56
374,Pevek,95,RU,1567710534,75,69.7,170.27,42.98,3.96
375,Kautokeino,100,NO,1567710705,96,69.01,23.04,43.88,9.4
376,Cap-aux-Meules,20,CA,1567710707,59,47.38,-61.86,62.6,14.99
377,La Asuncion,30,AR,1567710708,37,-26.05,-65.39,63.14,7.94
379,Oum Hadjer,63,TD,1567710711,48,13.3,19.7,89.96,10.18
380,Japura,21,ID,1567710712,81,-0.42,102.29,73.22,1.83
381,Mahebourg,40,MU,1567710714,73,-20.41,57.7,71.6,4.7
382,Eyl,12,SO,1567710715,75,7.98,49.82,75.92,26.91
384,Lodja,82,CD,1567710717,48,-3.52,23.6,82.4,3.85
385,Codrington,75,AU,1567710719,93,-28.95,153.24,55.4,3.42
386,Ahuimanu,20,US,1567710721,55,21.44,-157.84,87.8,10.29
387,Atambua,84,ID,1567710440,78,-9.11,124.89,74.66,10.71
388,Locri,75,IT,1567710724,74,38.24,16.26,79,4.7
389,Talnakh,75,RU,1567710727,93,69.49,88.39,50,11.18
390,San Quintin,100,PH,1567710728,89,17.54,120.52,75.38,4.21
391,Victoria,75,BN,1567710582,94,5.28,115.24,82.4,6.13
392,Visby,0,SE,1567710731,87,57.64,18.3,61,10.29
393,Sangar,2,RU,1567710732,84,63.92,127.47,37.4,1.66
394,Novovasylivka,100,UA,1567710734,83,48.2,37.04,62.78,3.65
395,Del Rio,75,US,1567710508,58,29.36,-100.9,90,8.05
396,Parakou,59,BJ,1567710737,85,9.34,2.63,77,2.08
397,Beniganj,67,IN,1567710739,70,27.28,80.45,85.46,6.4
398,Barcelona,40,ES,1567710664,64,41.38,2.18,75.2,10.29
399,Hirara,100,JP,1567710742,80,24.8,125.28,83.66,38.1
400,Olga,1,US,1567710743,36,34.11,-118.17,96.01,4.83
401,Kargasok,94,RU,1567710745,81,59.06,80.87,45.86,3.56
402,Pilar,40,AR,1567710746,53,-34.46,-58.91,57,16.11
403,Basco,1,US,1567710748,61,40.33,-91.2,79,6.93
404,Pacatuba,2,BR,1567710749,63,-10.45,-36.65,79.7,10.2
405,Wasilla,1,US,1567710602,67,61.58,-149.44,59,3.36
406,San Policarpo,98,PH,1567710752,87,12.18,125.51,78.8,5.19
408,Dalby,0,AU,1567710754,34,-27.18,151.26,54,6.93
409,Acari,3,BR,1567710458,23,-6.44,-36.64,96.26,10.58
410,Ilulissat,40,GL,1567710757,61,69.22,-51.1,46.4,5.82
411,North Platte,0,US,1567710759,41,41.12,-100.77,93,3
412,Dwarka,75,IN,1567710761,74,28.58,77.04,91,6.93
413,Bertinoro,0,IT,1567710762,64,44.15,12.13,75.99,3.36
414,Wajir,0,KE,1567710764,43,1.75,40.07,87.8,10.29
416,Ciudad Bolivar,47,VE,1567710765,49,8.12,-63.55,93.92,9.51
417,Pimentel,71,BR,1567710767,56,-3.7,-45.5,87.62,5.3
419,Kindu,80,CD,1567710769,56,-2.95,25.92,79.52,2.44
420,Waldoboro,20,US,1567710771,55,44.1,-69.38,75,8.05
421,Singaraja,100,ID,1567710772,72,-8.11,115.08,77.9,7.16
422,Ambon,0,FR,1567710774,54,47.55,-2.56,60.8,10.29
423,Baghmara,100,IN,1567710775,86,23.8,86.21,79.16,5.55
424,Altamont,90,CA,1567710776,100,49.4,-98.5,71.01,13.87
425,Moultrie,1,US,1567710778,49,31.18,-83.79,97,10.29
426,Awash,31,ET,1567710779,49,8.99,40.17,80.6,6.46
428,Pacaembu,80,BR,1567710663,44,-21.56,-51.27,85.1,14
429,Belaya Gora,98,RU,1567710783,62,68.54,146.19,41.36,3.24
430,Emilio Carranza,22,MX,1567710784,54,19.97,-96.61,90.14,4.38
431,Umm Lajj,0,SA,1567710786,65,25.02,37.27,85.82,11.25
432,Araxa,3,BR,1567710706,19,-19.59,-46.94,93.02,6.67
433,Stokmarknes,75,NO,1567710789,93,68.56,14.91,48.2,3.36
434,Trat,100,TH,1567710791,88,12.25,102.51,82.99,0.63
435,Verkhnyachka,47,UA,1567710793,77,48.83,30.04,58.82,3.89
436,Klaksvik,75,FO,1567710794,93,62.23,-6.59,50,5.82
437,Zabaykalsk,35,CN,1567710795,91,49.64,117.33,56.12,2.77
438,Kozhevnikovo,0,RU,1567710797,83,56.26,83.98,50,6.06
439,Oranjemund,0,ZA,1567710799,82,-28.55,16.43,57.2,15.64
440,Nyagan,72,RU,1567710800,82,62.14,65.43,49.28,3.58
441,Atar,20,MR,1567710801,23,20.52,-13.05,104,9.17
442,Poyarkovo,98,RU,1567710803,97,49.62,128.65,60.26,3.29
443,Praia,0,BR,1567710805,48,-20.25,-43.81,86,17.22
444,Qiyang,5,CN,1567710806,73,26.59,111.85,74.66,4.47
445,Ulladulla,58,AU,1567710808,100,-35.36,150.48,48.2,5.82
446,Mpraeso,79,GH,1567710809,96,6.6,-0.73,75.2,2.68
447,Hay River,75,CA,1567710811,81,60.82,-115.79,53.6,14.99
448,Port Hardy,75,CA,1567710812,93,50.7,-127.42,53.6,4.7
449,Taoudenni,30,ML,1567710814,11,22.68,-3.98,109.04,10.67
450,Conceicao da Barra,34,BR,1567710815,44,-18.59,-39.73,84.56,9.31
451,Necochea,100,AR,1567710817,66,-38.55,-58.74,51.01,5.99
453,Port-Gentil,75,GA,1567710819,78,-0.72,8.78,78.8,12.75
454,Pacifica,90,US,1567710820,77,37.61,-122.49,72,10.29
455,San Cristobal,17,HN,1567710822,32,14.68,-86.92,88.52,10.33
456,Ugoofaaru,100,MV,1567710823,79,5.67,73,82.58,8.5
457,Caravelas,18,BR,1567710825,66,-17.73,-39.27,76.64,7.85
458,Raudeberg,75,NO,1567710827,81,61.99,5.14,48.2,16.11
459,Akola,100,IN,1567710639,89,20.71,77,76.82,12.37
460,The Pas,90,CA,1567710829,87,53.82,-101.24,53.6,6.93
461,Ust-Ishim,18,RU,1567710831,92,57.69,71.17,47.3,6.02
463,Aklavik,90,CA,1567710833,100,68.22,-135.01,50,3.36
464,Ekimchan,67,RU,1567710834,97,53.07,132.94,48.38,1.77
466,Mitsamiouli,20,KM,1567710836,78,-11.38,43.28,77,9.17
469,Fairbanks,75,US,1567710602,76,64.84,-147.72,54,3.36
470,Vestmannaeyjar,90,IS,1567710840,100,63.44,-20.27,50,17.22
473,Taboga,0,IT,1567710842,39,46.27,13.11,78.8,12.75
474,Isilkul,100,RU,1567710844,81,54.9,71.26,50.9,13.98
475,Iqaluit,75,CA,1567710845,61,63.75,-68.52,48.2,9.17
476,Inuvik,90,CA,1567710847,100,68.36,-133.71,50,2.24
478,Comodoro Rivadavia,40,AR,1567710849,63,-45.87,-67.48,46.4,20.8
479,Mersing,0,MY,1567710850,94,2.43,103.84,73.94,2.1
480,Wagar,3,US,1567710852,52,31.44,-87.99,96.01,1.99
481,Saint-Leu,20,RE,1567710853,68,-21.15,55.28,73.4,3.36
482,Nishihara,40,JP,1567710855,78,35.74,139.53,81,1.12
483,Karnobat,20,BG,1567710856,77,42.65,26.98,71.6,8.05
484,Teguldet,81,RU,1567710858,94,57.31,88.17,45.14,3.6
485,Urengoy,94,RU,1567710859,73,65.96,78.37,52.88,9.75
486,Inirida,100,CO,1567710861,73,3.87,-67.92,82.22,2.71
487,Baker City,1,US,1567710862,35,44.77,-117.83,75.2,4.7
488,Abha,40,SA,1567710864,14,18.22,42.5,80.6,12.75
489,San Ramon,40,NI,1567710865,51,12.92,-85.84,80.6,8.95
490,Sterling,40,US,1567710867,61,39,-77.4,81,6.93
491,Margate,1,AU,1567710869,93,-43.03,147.26,45,6.93
492,Shishou,0,CN,1567710870,70,29.72,112.42,73.76,5.5
493,Tanout,27,NE,1567710872,27,14.97,8.88,97.88,8.12
494,Rurrenabaque,40,BO,1567710873,46,-14.44,-67.53,89.6,4.7
495,Whitehorse,20,CA,1567710706,66,60.72,-135.06,54,4.7
496,Talaya,0,RU,1567710876,93,55.79,84.89,44.6,2.24
497,Itarema,57,BR,1567710878,49,-2.92,-39.92,88.34,15.55
498,Kuminskiy,0,RU,1567710880,95,58.67,66.57,47.48,4.29
499,Nazilli,76,TR,1567710881,68,37.91,28.32,69.8,1.74
500,Milkovo,79,BG,1567710882,53,41.53,24.68,78.01,10.29
502,Miramar,90,CR,1567710885,57,10.09,-84.73,77,14.99
503,Malartic,75,CA,1567710886,76,48.14,-78.13,57.2,6.93
504,Fort Abbas,42,PK,1567710888,29,29.19,72.85,100.94,8.41
505,Port Hedland,1,AU,1567710889,88,-20.31,118.58,62.6,3.71
506,Halifax,20,CA,1567710617,49,44.65,-63.58,73.99,8.05
507,Cabo San Lucas,20,MX,1567710605,55,22.89,-109.91,91.99,11.41
508,Bundaberg,0,AU,1567710894,100,-24.87,152.35,62.01,8.05
509,Juegang,61,CN,1567710896,97,32.31,121.18,81,7.4
511,Turka,100,RU,1567710898,94,52.95,108.22,49.64,11.25
512,Boddam,96,GB,1567710899,62,57.47,-1.78,57.2,6.93
513,Luga,57,RU,1567710901,85,58.74,29.85,59.54,6.87
515,Hofn,100,IS,1567710903,95,64.25,-15.21,36.32,3.44
517,Dunedin,100,NZ,1567710905,73,-45.87,170.5,48,18.01
518,Kindersley,20,CA,1567710907,55,51.47,-109.16,71.01,14.99
519,Oranjestad,40,AW,1567710908,62,12.52,-70.03,89.6,20.8
520,Altamira,40,BR,1567710910,55,-3.2,-52.21,91.4,5.82
521,Lakatoro,16,VU,1567710913,67,-16.11,167.42,73.4,13.91
522,Fort Washington,90,US,1567710915,65,38.71,-77.01,81,4.7
523,Coahuayana,66,MX,1567710917,71,18.62,-100.35,83.66,2.51
524,Khandbari,92,NP,1567710919,87,27.38,87.21,58.64,1.01
525,Ardesen,75,TR,1567710920,88,41.19,40.99,73.4,4.7
526,Msanga,20,TZ,1567710922,44,-6.04,36.03,75.2,14.99
527,Faya,40,SA,1567710923,14,18.39,42.45,80.6,12.75
528,Nakhon Phanom,100,LA,1567710925,96,17.4,104.79,71.42,0.34
529,Puerto Escondido,5,MX,1567710926,59,15.86,-97.07,89.6,9.17
530,Noumea,90,NC,1567710927,87,-22.28,166.46,71.01,2.24
531,Zapolyarnyy,75,RU,1567710929,71,69.43,30.82,53.6,13.87
532,Mackenzie,90,CA,1567710930,87,55.34,-123.09,53.6,2.24
533,Nanyamba,20,MZ,1567710932,83,-10.69,39.81,75.2,6.93
534,Doka,97,SD,1567710933,85,13.52,35.76,76.64,6.38
535,Maniitsoq,100,GL,1567710935,95,65.42,-52.9,39.38,15.3
536,Parintins,62,BR,1567710936,29,-2.63,-56.73,102.2,6.91
537,Sambava,46,MG,1567710937,91,-14.27,50.17,65.48,3.22
539,Smithers,75,CA,1567710906,76,54.78,-127.17,51.8,2.24
540,San Felipe,100,CL,1567710941,97,-32.75,-70.73,57.99,4.85
541,Satipo,100,PE,1567710942,97,-11.26,-74.64,41.72,3.2
542,Tra Vinh,81,VN,1567710944,89,9.93,106.35,76.82,8.95
543,Sechura,49,PE,1567710899,94,-5.56,-80.82,60.44,16.11
544,Destin,1,US,1567710947,41,30.39,-86.5,99,5.82
545,Porosozero,100,RU,1567710948,84,62.72,32.71,56.12,9.66
546,Deli Tua,40,ID,1567710950,94,3.5,98.69,75.2,2.93
547,Mehamn,100,NO,1567710951,75,71.03,27.85,48.38,6.78
548,Uyuni,100,BO,1567710953,36,-20.46,-66.82,53.96,15.77
549,Cap Malheureux,40,MU,1567710954,73,-19.98,57.61,71.6,4.7
550,Bay Roberts,75,CA,1567710956,73,47.58,-53.28,75.2,14.99
551,Navahrudak,41,BY,1567710957,74,53.59,25.82,59.36,7
552,Kropotkin,16,RU,1567710959,29,45.43,40.58,72,14.41
553,Skibbereen,75,IE,1567710960,72,51.55,-9.27,59,9.17
554,Havelock,90,US,1567710793,78,34.88,-76.9,82.99,16.11
555,Kamenka,2,MD,1567710963,82,48.03,28.7,55,5.73
556,Kysyl-Syr,91,RU,1567710965,89,63.9,122.77,39.74,5.93
557,Aripuana,62,BR,1567710967,55,-9.17,-60.63,88.52,7.56
558,Lokomotivnyy,100,RU,1567710968,88,53.01,60.57,48.74,8.12
559,Avera,75,US,1567710969,44,33.19,-82.53,95,6.93
560,Amiens,0,FR,1567710971,58,49.89,2.3,57.2,9.17
561,Vila Velha,0,BR,1567710973,66,-3.71,-38.6,84.2,11.41
562,Rabat,40,MA,1567710974,73,34.02,-6.83,77,8.05
563,Luau,11,CD,1567710975,21,-10.7,22.23,78.44,2.8
564,Korcula,20,HR,1567710977,50,42.96,17.14,77,1.12
565,Burns Lake,96,CA,1567710978,51,54.23,-125.76,60.8,2.51
566,Bowen,0,AU,1567710980,87,-20.01,148.25,59,2.24
567,Vuktyl,29,RU,1567710835,84,63.86,57.31,52.88,5.73
568,Chernoyerkovskaya,75,RU,1567710983,77,45.43,37.76,69.01,11.18
569,Sao Miguel,40,BR,1567710985,78,4.52,-61.01,78.44,5.23
570,Baft,62,IR,1567710986,26,29.23,56.61,67.1,12.64
571,Lebyazhye,0,RU,1567710988,72,59.96,29.42,60.01,6.71
572,Lethem,22,GY,1567710989,51,3.38,-59.8,91.58,8.48
573,Keita,100,NG,1567710991,85,7.1,3.65,77.9,3.18
574,Den Helder,75,NL,1567710993,67,52.96,4.76,57.99,17.22
575,Kytmanovo,18,RU,1567710994,70,53.46,85.45,48.74,5.14
577,Takoradi,86,GH,1567710996,85,4.89,-1.75,77,6.51
578,Realeza,100,BR,1567710998,51,-25.77,-53.53,76.64,2.44
579,Salinopolis,66,BR,1567710999,77,-0.61,-47.36,80.96,17.31
580,La Palma,5,CO,1567711001,45,5.36,-74.39,88.52,4.72
581,Kawalu,97,ID,1567711002,90,-7.38,108.21,64.22,2.44
582,Cockburn Town,10,TC,1567710715,79,21.46,-71.14,83.66,11.36
583,Luba,100,PH,1567711005,89,17.32,120.7,75.38,4.21
584,Falun,14,SE,1567711007,71,60.61,15.63,53.01,6.93
585,Mizan Teferi,100,ET,1567711008,94,6.99,35.58,63.68,2.64
586,Tirat Karmel,20,IL,1567711010,65,32.76,34.97,82.4,4.7
587,Banda Aceh,100,ID,1567711012,84,5.56,95.32,82.76,16.04
588,Chiang Klang,100,TH,1567711013,94,19.29,100.86,69.62,2.1
589,Bicester,0,GB,1567711014,51,51.9,-1.15,62.6,4.7
591,Navalmoral de la Mata,0,ES,1567711016,37,39.89,-5.54,75.99,1.77
592,Livingston,40,US,1567710980,37,30.71,-94.93,98.01,5.82
593,Makinsk,100,KZ,1567711019,93,52.63,70.42,49.28,18.99
594,Igarka,100,RU,1567711021,86,67.47,86.57,49.82,5.19
595,Katherine,59,AU,1567711022,56,-14.47,132.26,69.8,5.82
596,Rengo,75,CL,1567711024,42,-34.41,-70.86,62.6,2.24
597,Magdalena,40,PH,1567711025,74,14.2,121.43,84.2,6.93
598,Rome,0,IT,1567711026,57,41.89,12.48,78.8,2.24
600,Ryotsu,4,JP,1567711028,100,38.08,138.43,71.6,8.21
