,City,Cloudy,Country,Date,Humidity,Latitude,Longitude,Max Temp,Wind Speed
0,Vestmannaeyjar,100,IS,1567737210,87,63.44,-20.27,50.13,5.35
1,Kavaratti,100,IN,1567737212,81,10.57,72.64,82.71,17.78
2,Guerrero Negro,0,MX,1567737213,78,27.97,-114.04,74.21,9.04
3,Arraial do Cabo,100,BR,1567737214,84,-22.97,-42.02,64.99,6.89
4,Broken Hill,75,AU,1567737216,38,-31.97,141.45,60.8,32.21
5,Ushuaia,87,AR,1567737202,90,-54.81,-68.31,27.32,1.77
6,Rameswaram,100,IN,1567737219,68,9.28,79.3,83.91,16.6
7,Abu Ghosh,20,IL,1567737220,78,31.81,35.11,77,3.36
9,Pandan Niog,27,PH,1567737222,77,6.23,120.56,83.5,10.31
10,Mataura,93,NZ,1567737223,60,-46.19,168.86,50,11.01
11,Carnarvon,0,ZA,1567737225,63,-30.97,22.13,46.33,13.69
13,New Norfolk,75,AU,1567737226,76,-42.78,147.06,52,6.93
15,Balad,95,ID,1567737228,36,-6.76,108.42,82.58,4.74
16,Almaznyy,0,RU,1567737230,44,48.03,40.04,60.8,13.42
17,Obregon,40,NI,1567737231,88,11.96,-85.96,75.2,4.7
18,Kavieng,95,PG,1567737233,77,-2.57,150.8,81.82,16.58
19,Nola,65,CF,1567737234,97,3.52,16.05,68.77,1.66
20,Kupang,20,ID,1567737236,54,-10.16,123.6,82.4,6.93
21,Yerofey Pavlovich,10,RU,1567737237,57,53.97,121.97,66.49,5.23
22,Kruisfontein,0,ZA,1567737238,85,-34,24.73,45.99,8.25
23,Punta Arenas,20,CL,1567737240,92,-53.16,-70.91,28.4,5.82
24,Kimbe,52,PG,1567737241,48,-5.56,150.15,87.22,6.8
25,Mount Gambier,75,AU,1567737243,87,-37.83,140.78,51.8,14.99
26,Ribeira Grande,100,PT,1567737244,81,38.52,-28.7,70.61,13.76
27,Busselton,28,AU,1567737246,41,-33.64,115.35,62.01,13.09
28,Cabo San Lucas,75,MX,1567736992,78,22.89,-109.91,86,10.29
29,Les Cayes,87,HT,1567737248,75,18.19,-73.75,83.46,2.39
30,Touros,0,BR,1567737250,94,-5.2,-35.46,71.6,4.7
31,Vaini,75,IN,1567737251,94,15.34,74.49,71.6,13.87
32,Albany,40,US,1567736975,82,42.65,-73.75,59,3.18
33,Cap Malheureux,40,MU,1567737254,93,-19.98,57.61,68,4.7
34,Bredasdorp,0,ZA,1567737255,76,-34.53,20.04,53.01,10.29
35,Adrar,40,DZ,1567737257,57,27.87,-0.29,77,9.17
37,Yerbogachen,99,RU,1567737259,85,61.28,108.01,49.57,7.34
38,Nanortalik,100,GL,1567737260,84,60.14,-45.24,44.62,12.62
39,Atuona,18,PF,1567737261,67,-9.8,-139.03,79.43,6.24
41,Palmer,75,AU,1567737263,58,-34.85,139.16,59,34.45
42,Airai,99,TL,1567737265,54,-8.93,125.41,81.52,6.89
43,Omagh,100,GB,1567737266,94,54.6,-7.3,55.13,11.34
44,Ilulissat,100,GL,1567737268,80,69.22,-51.1,35.6,6.87
45,Henties Bay,0,NA,1567737269,91,-22.12,14.28,55,4.38
47,Castro,90,CL,1567737271,100,-42.48,-73.76,42.8,2.24
48,Kilimatinde,0,TZ,1567737272,81,-5.75,34.82,58.41,5.41
49,Kogon,0,UZ,1567737274,39,39.73,64.54,62.6,11.41
50,Port Alfred,0,ZA,1567737275,79,-33.59,26.89,54,5.01
51,Mayo,90,CA,1567737047,48,63.59,-135.9,60.8,4.7
53,Indramayu,0,ID,1567737278,48,-4.05,103.78,83.19,4.99
54,Kirakira,0,SB,1567737280,67,-10.46,161.92,78.73,16.44
55,Sambava,0,MG,1567737281,85,-14.27,50.17,63.9,3.96
57,Khorramshahr,0,IR,1567737283,38,30.43,48.18,89.6,9.17
58,Rikitea,100,PF,1567737284,70,-23.12,-134.97,68.34,13.87
59,Cherskiy,87,RU,1567737286,54,68.75,161.3,50.18,10.11
60,Buluang,75,PH,1567737287,66,10.47,123.98,87.8,14.99
61,Lisakovsk,88,KZ,1567737289,86,52.55,62.49,49.23,14.94
62,Faanui,50,PF,1567737290,79,-16.48,-151.75,75.24,24.36
63,Staritsa,22,RU,1567737291,96,56.51,34.93,50.77,1.23
64,Georgetown,0,GY,1567737293,94,6.8,-58.16,82.4,4.7
65,Lompoc,1,US,1567737294,82,34.64,-120.46,72,10.29
66,Ust-Barguzin,90,RU,1567737296,80,53.41,109.03,52.27,4.81
67,Meulaboh,49,ID,1567737297,82,4.14,96.13,81.37,7.49
68,Hermanus,0,ZA,1567737299,86,-34.42,19.24,55,3
69,Upernavik,0,GL,1567737300,74,72.79,-56.15,38.53,7.72
70,Clyde River,90,CA,1567737301,93,70.47,-68.59,39.2,4.7
71,Qaanaaq,97,GL,1567737303,60,77.48,-69.36,29.37,6.91
72,Sao Joao da Barra,100,BR,1567737304,80,-21.64,-41.05,64.81,9.62
73,Nome,1,US,1567737306,69,30.04,-94.42,87.01,3.36
74,Champerico,75,MX,1567737307,62,16.38,-93.6,84.2,12.75
75,Smithers,90,CA,1567737060,48,54.78,-127.17,66.2,4.7
76,Sitka,0,US,1567737310,45,37.17,-99.65,78.01,5.99
77,Tiksi,100,RU,1567737311,67,71.64,128.87,43.92,8.3
79,Heishan,58,CN,1567737313,76,41.69,122.12,75.33,3.31
80,Oranjemund,0,ZA,1567737315,78,-28.55,16.43,57.88,16.44
81,East London,57,ZA,1567737316,80,-33.02,27.91,52.16,7.07
82,Vardo,1,US,1567737317,68,39.62,-77.74,69.8,6.93
83,Batagay-Alyta,80,RU,1567737319,71,67.8,130.41,40.95,5.21
84,Barrow,100,AR,1567737320,74,-38.31,-60.23,37.56,8.3
85,Hobart,75,AU,1567737035,76,-42.88,147.33,52,6.93
86,Farafangana,0,MG,1567737323,96,-22.82,47.83,60.8,1.41
87,Linqu,0,CN,1567737325,42,36.52,118.54,89.01,1.01
88,Oyama,40,JP,1567737326,62,36.31,139.8,93.99,4.7
89,Gat,20,SN,1567737327,83,14.69,-16.54,80.6,3.36
90,Sal Rei,75,CV,1567737329,88,16.18,-22.92,80.6,10.29
91,Yellowknife,40,CA,1567737330,81,62.45,-114.38,51.8,6.93
92,Kargasok,1,RU,1567737332,66,59.06,80.87,52.81,5.99
93,Saint-Philippe,1,CA,1567737333,63,45.36,-73.48,60.8,4.7
94,Hithadhoo,68,MV,1567737335,76,-0.6,73.08,83.48,16.49
95,Khatanga,100,RU,1567737336,97,71.98,102.47,46.09,4.16
96,Shenjiamen,100,CN,1567737337,88,29.96,122.3,76.53,25.55
97,Dikson,61,RU,1567737339,96,73.51,80.55,42.4,15.43
98,Kaitangata,100,NZ,1567737340,54,-46.28,169.85,48.99,11.01
99,Antofagasta,90,CL,1567737220,76,-23.65,-70.4,57.2,8.05
100,Camacha,75,PT,1567737065,68,33.08,-16.33,69.8,18.34
101,San Ramon,77,NI,1567737344,94,12.92,-85.84,66.22,4.54
102,Rafai,100,CF,1567737346,97,4.95,23.92,67.64,1.66
103,Constitucion,90,MX,1567737347,68,23.99,-104.67,66.99,3.36
104,Kapaa,20,US,1567737349,59,22.08,-159.32,89.6,17.22
105,Adwa,47,ET,1567737350,85,14.16,38.9,62.01,2.62
106,Richards Bay,100,ZA,1567737351,71,-28.77,32.06,65.73,16.8
107,Sirjan,0,IR,1567737353,20,29.44,55.67,72.77,3.96
108,Saint Lawrence,20,MT,1567737354,88,36.06,14.2,73.4,6.93
110,North Platte,11,US,1567737207,73,41.12,-100.77,78.01,8.05
111,Nikolskoye,0,RU,1567737357,82,59.7,30.79,59,6.71
112,Maralal,15,KE,1567737359,82,1.1,36.7,59.99,9.4
113,Cape Town,0,ZA,1567737325,82,-33.93,18.42,55.99,6.93
114,Kuntaur,51,GM,1567737362,96,13.67,-14.89,74.23,6.06
115,Port Elizabeth,40,US,1567737363,82,39.31,-74.98,72,6.93
116,Calabozo,100,VE,1567737365,94,8.92,-67.43,74.98,3.38
117,Neiafu,40,TO,1567737366,61,-18.65,-173.98,78.8,3.36
118,Komsomolskiy,38,RU,1567737367,86,67.55,63.78,50.29,2.68
119,Sisimiut,54,GL,1567737369,86,66.94,-53.67,41.27,17.63
120,Matara,0,BI,1567737370,64,-3.48,29.48,52.97,1.57
121,Atambua,68,ID,1567737372,74,-9.11,124.89,75.69,9.93
122,Nishihara,75,JP,1567737373,66,35.74,139.53,91,8.05
123,Saint George,20,GR,1567737375,77,39.45,22.34,66.2,0.22
124,Beira,40,ES,1567737376,77,43.2,-8.36,62.01,5.82
125,Kiruna,100,SE,1567737378,100,67.86,20.23,41,3.36
126,The Valley,20,AI,1567737379,78,18.22,-63.06,82.4,6.93
127,Arkhara,48,RU,1567737380,78,49.42,130.09,72.52,4.94
128,Roald,100,NO,1567737382,76,62.58,6.12,48.2,11.41
129,Payson,90,US,1567737340,64,40.04,-111.73,75,11.41
130,Ahvaz,0,IR,1567737385,30,31.32,48.68,84.2,2.24
131,Chokurdakh,54,RU,1567737386,63,70.62,147.9,41.32,3.91
132,Saskylakh,100,RU,1567737387,87,71.97,114.09,44.31,12.41
133,Fairbanks,1,US,1567737106,42,64.84,-147.72,64.4,1.5
134,La Sarre,3,CA,1567737390,97,48.8,-79.2,43.77,2.57
135,Cidreira,0,BR,1567737392,73,-30.17,-50.22,55.04,12.19
136,Victor Harbor,75,AU,1567737393,58,-35.55,138.62,55.99,34.45
137,Fortuna,40,US,1567737395,88,40.6,-124.16,66,9.17
138,Lebu,75,ET,1567737396,87,8.96,38.73,55.4,6.93
139,Naze,100,NG,1567737397,96,5.43,7.07,73.45,0.87
140,Boda,96,CF,1567737399,92,4.32,17.47,67.3,2.01
141,Aberystwyth,100,GB,1567737400,90,52.41,-4.08,54,19.39
143,Narsaq,100,GL,1567737402,66,60.91,-46.05,48.2,28.86
144,Norman Wells,40,CA,1567737403,66,65.28,-126.83,55.4,5.82
145,San Quintin,63,PH,1567737405,82,17.54,120.52,82.54,19.55
146,Mahebourg,40,MU,1567737406,93,-20.41,57.7,68,4.7
147,Iqaluit,75,CA,1567737224,75,63.75,-68.52,44.6,6.93
148,Westport,1,US,1567737409,82,41.14,-73.36,64.99,2.24
149,Parian Dakula,96,PH,1567737410,78,5.56,120.77,83.43,13.4
150,Itaqui,35,BR,1567737412,76,-29.13,-56.55,50.25,12.73
151,Khalkhal,7,IR,1567737413,81,37.62,48.53,51.51,2.71
152,Namibe,100,AO,1567737415,91,-15.19,12.15,63.82,6.17
153,Maniitsoq,44,GL,1567737416,76,65.42,-52.9,40.51,8.81
154,Misratah,5,LY,1567737417,73,32.38,15.09,77.79,11.36
155,Provideniya,75,RU,1567737419,76,64.42,-173.23,51.8,11.18
156,Salaga,58,GH,1567737420,91,8.55,-0.52,74.3,3.04
157,Charyshskoye,68,RU,1567737422,55,51.4,83.56,56.75,4.05
158,Kodiak,1,US,1567737423,78,39.95,-94.76,80.01,3.36
159,Nouadhibou,0,MR,1567737425,78,20.93,-17.03,73.4,12.75
160,Ilebo,62,CD,1567737426,62,-4.33,20.59,73.17,1.03
161,Butaritari,0,KI,1567737428,69,3.07,172.79,84.74,10.29
162,Ostrovnoy,100,RU,1567737429,87,68.05,39.51,53.67,21.63
163,Senador Jose Porfirio,18,BR,1567737430,88,-2.59,-51.95,76.96,6.87
164,Cockburn Town,0,TC,1567737432,79,21.46,-71.14,83.43,15.52
165,Rovaniemi,75,FI,1567737433,93,66.5,25.72,51.8,12.75
167,Rio Grande,0,BR,1567737435,90,-32.03,-52.1,51.01,1.01
168,Sabang,36,PH,1567737437,70,13.8,121.11,88,4
169,Bulawayo,0,ZW,1567737438,32,-20.16,28.59,59.38,15.57
170,Great Yarmouth,100,GB,1567737439,87,52.61,1.73,53.01,9.17
171,Necochea,100,AR,1567737441,85,-38.55,-58.74,36,1.99
172,Palmerston,20,AU,1567737442,48,-12.49,130.99,84.2,6.93
173,Padang,0,ID,1567737444,81,-0.92,100.36,81.14,11.81
174,Kibala,20,TD,1567737445,94,9.11,18.35,75.2,2.42
175,Jamestown,72,AU,1567737447,72,-33.21,138.6,51.87,24.65
176,Moerai,97,PF,1567737448,70,-22.43,-151.33,67.12,24.81
177,Ponta Delgada,75,PT,1567737449,72,37.73,-25.67,71.01,9.17
178,Bluff,0,AU,1567737451,11,-23.58,149.07,87.82,9.08
179,Rengo,100,CL,1567737452,76,-34.41,-70.86,53.6,2.24
180,Gizo,20,IL,1567737454,78,31.8,34.94,77,3.36
181,Kulhudhuffushi,87,MV,1567737455,79,6.62,73.07,82.6,10.4
182,Bethel,90,US,1567737457,87,60.79,-161.76,57.2,17.22
183,Port Keats,31,AU,1567737458,59,-14.25,129.55,83.32,10.6
184,Port Hedland,0,AU,1567737459,65,-20.31,118.58,77,10.29
185,Kuryk,0,KZ,1567737461,32,43.18,51.68,62.69,7.25
187,Ust-Tsilma,32,RU,1567737463,97,65.44,52.15,48.15,2.98
188,Avera,75,US,1567737464,69,33.19,-82.53,82.4,5.82
189,Pisco,90,PE,1567737166,87,-13.71,-76.2,61,14.99
191,Vanavara,96,RU,1567737467,87,60.35,102.28,42.64,9.37
192,San Patricio,100,PY,1567737469,95,-26.98,-56.83,54.81,6.26
193,San Luis,76,AR,1567737470,49,-33.3,-66.34,51.55,8.79
194,Muravlenko,30,RU,1567737472,76,63.79,74.5,53.08,8.41
195,Honningsvag,98,NO,1567737473,91,70.98,25.97,47.82,18.21
196,Riverton,40,US,1567737474,26,43.02,-108.38,84,6.93
197,Emba,40,CY,1567737476,78,34.81,32.42,75.2,3.36
198,Kaabong,75,UG,1567737477,88,3.51,34.14,62.69,0.81
199,Mersing,0,MY,1567737479,44,2.43,103.84,89.17,4.18
200,Sokolo,6,ML,1567737480,76,14.74,-6.12,77.85,9.01
201,Turkmenabat,0,TM,1567737482,36,39.09,63.58,64.4,11.41
202,Lixourion,20,GR,1567737483,83,38.2,20.43,73.99,3.09
203,Saint-Francois,0,FR,1567737485,71,46.42,3.91,51.8,6.93
204,Thompson,90,CA,1567737486,81,55.74,-97.86,48.2,2.24
205,Ust-Kuyga,100,RU,1567737487,84,70,135.55,43.14,2.1
206,Pevek,41,RU,1567737489,71,69.7,170.27,43.86,4.41
207,Bereda,40,ES,1567737490,77,43.27,-7.54,62.01,5.82
208,Lahaina,20,US,1567737492,55,20.87,-156.68,89.6,20.8
209,Avarua,73,CK,1567737493,73,-21.21,-159.78,75.2,20.8
210,Cayenne,0,GF,1567737495,88,4.94,-52.33,78.8,3.36
211,Abu Dhabi,0,AE,1567737496,84,24.47,54.37,89.6,4.7
212,Mar del Plata,96,AR,1567737498,77,-46.43,-67.52,37.17,8.88
213,Walvis Bay,0,NA,1567737499,93,-22.95,14.51,55,3.36
214,Cumra,0,TR,1567737500,42,37.57,32.77,66.2,5.82
215,Almaty,90,KZ,1567737502,87,43.24,76.95,55.4,4.47
216,Riberalta,79,BO,1567737503,65,-11,-66.08,75,2.93
217,Finnsnes,100,NO,1567737505,100,69.23,17.98,46.4,3.36
218,Muros,0,ES,1567737506,82,42.77,-9.06,64,8.05
219,Leningradskiy,42,RU,1567737508,92,69.38,178.42,43.27,5.57
221,Thinadhoo,5,MV,1567737509,78,0.53,72.93,82.94,12.53
222,Yantzaza,85,EC,1567737511,98,-3.83,-78.76,54.03,1.92
223,Yulara,0,AU,1567737512,25,-25.24,130.99,62.6,13.87
224,Hay River,20,CA,1567737514,81,60.82,-115.79,53.6,2.24
225,Meadow Lake,0,CA,1567737515,71,54.13,-108.44,54.79,5.1
226,Arenys de Mar,75,ES,1567737516,82,41.58,2.55,72,2.24
227,Tasiilaq,67,GL,1567737518,75,65.61,-37.64,41,4.7
228,Grindavik,90,IS,1567737519,100,63.84,-22.43,50,2.24
231,Manitowoc,90,US,1567737521,93,44.09,-87.66,62.01,6.93
232,Hilo,90,US,1567737523,66,19.71,-155.08,84.2,9.17
233,Nizwa,100,OM,1567737524,26,22.93,57.53,88.38,3.36
234,Pilar,0,AR,1567737292,70,-34.46,-58.91,51.01,14.99
235,Aykhal,90,RU,1567737527,100,65.95,111.51,35.6,4.47
236,Kanina,0,CD,1567737528,38,-10.73,25.47,60.37,4.07
237,Flinders,0,AU,1567737530,44,-34.58,150.85,75.2,4.7
238,Pangnirtung,29,CA,1567737531,65,66.15,-65.72,35.62,3.31
239,Teeli,0,RU,1567737533,73,51.01,90.2,48.42,5.01
240,Kirovsk,73,RU,1567737534,96,67.62,33.66,51.31,4.32
241,Hofn,59,IS,1567737536,93,64.25,-15.21,31.48,2.44
242,Salalah,90,OM,1567737537,100,17.01,54.1,77,3.36
243,Turiacu,100,BR,1567737539,79,-5.01,-63,77.16,4.23
244,Nam Som,75,TH,1567737540,83,17.77,102.19,88,4.7
247,Puerto Ayora,1,EC,1567737502,98,-0.74,-90.35,66.99,1.99
248,Fort Nelson,20,CA,1567737544,37,58.81,-122.69,68,3.36
249,Mecca,87,SA,1567737545,52,21.43,39.83,83.1,10.04
250,Esperance,0,AU,1567737547,58,-33.86,121.89,53.6,8.05
251,Bandikui,1,IN,1567737548,66,27.05,76.58,87.49,6.67
252,Snezhnogorsk,75,RU,1567737549,93,69.19,33.23,53.6,8.95
253,Ucluelet,20,CA,1567737269,68,48.94,-125.55,69.8,10.29
257,Verkhniy Avzyan,37,RU,1567737553,95,53.53,57.54,44.44,2.39
258,Kisaran,45,ID,1567737555,61,2.98,99.62,86.92,4.92
259,Grass Valley,1,US,1567737556,21,39.22,-121.06,89.6,7.23
260,Bilibino,71,RU,1567737558,57,68.06,166.44,49.3,3.47
261,Laurel,90,US,1567737516,73,39.1,-76.85,75.2,3.36
262,Ancud,90,CL,1567737560,100,-41.87,-73.83,42.8,2.24
263,Aklavik,90,CA,1567737562,93,68.22,-135.01,51.8,3.36
265,Husavik,94,CA,1567737564,90,50.56,-96.99,61,3.4
266,Trinidad,4,BO,1567737565,40,-14.83,-64.9,77.77,3.51
267,Beohari,22,IN,1567737566,81,24.05,81.38,83.07,4.79
268,Boditi,99,ET,1567737568,89,6.95,37.86,62.1,1.21
269,Kampong Thum,100,KH,1567737569,80,12.71,104.89,80.89,6.8
270,Warragul,79,AU,1567737360,59,-38.16,145.93,62.01,8.99
271,Campo Verde,40,PE,1567737572,69,-8.47,-74.81,82.4,3.36
272,Redcar,100,GB,1567737574,71,54.62,-1.06,57.2,9.17
274,Nioro,90,GM,1567737575,85,13.79,-15.05,76.42,8.63
276,Perelyub,26,RU,1567737577,73,51.87,50.37,53.53,3.2
278,Burgeo,33,CA,1567737579,74,47.61,-57.61,58.66,12.68
279,Chuy,87,UY,1567737580,74,-33.69,-53.46,50.72,10.11
281,Koungheul,36,SN,1567737582,87,13.98,-14.8,76.32,8.72
283,Marivan,0,IR,1567737584,24,35.52,46.18,67.05,5.06
284,Barra dos Coqueiros,75,BR,1567737585,83,-10.91,-37.04,77,14.99
285,Sao Filipe,100,CV,1567737587,84,14.9,-24.5,79.7,12.93
286,Dutse,67,NG,1567737588,85,11.76,9.34,74.66,9.15
287,Quatre Cocos,40,MU,1567737590,93,-20.21,57.76,68,4.7
288,Morristown,75,US,1567737580,64,36.21,-83.29,75.2,5.82
289,Rawson,100,AR,1567737592,91,-43.3,-65.11,38.61,15.61
290,Stokmarknes,100,NO,1567737594,91,68.56,14.91,46.99,17.11
291,Naryan-Mar,65,RU,1567737595,90,67.67,53.09,48.29,12.88
292,Santa Cruz,0,BR,1567737419,79,-6.22,-36.02,69.51,17.65
294,Miyoshi,20,JP,1567737598,58,34.81,132.85,89.6,10.29
295,Topolobampo,90,MX,1567737600,69,25.6,-109.05,82.4,12.75
296,Russell,1,US,1567737601,57,38.9,-98.86,80.01,10.29
297,Killybegs,100,IE,1567737603,95,54.63,-8.45,57,7
298,Phayuha Khiri,100,TH,1567737604,86,15.46,100.14,78.85,2.28
299,Nacala,26,MZ,1567737605,97,-14.56,40.69,65.23,5.12
300,Geraldton,90,CA,1567737607,100,49.72,-86.95,50,5.82
301,Tuktoyaktuk,75,CA,1567737602,87,69.44,-133.03,50,3.36
302,Port Hawkesbury,1,CA,1567737610,87,45.62,-61.36,57,4.7
303,San Ignacio,65,PE,1567737611,92,-5.15,-79,60.12,1.81
304,Isabela,35,PH,1567737613,75,10.2,122.99,84.02,10.96
305,Wasilla,40,US,1567737530,48,61.58,-149.44,64.4,4.7
306,Longyearbyen,75,NO,1567737615,80,78.22,15.63,39.2,19.46
307,Iwaki,20,JP,1567737617,65,37.05,140.89,91,3.36
308,Saint Pete Beach,1,US,1567737618,83,27.73,-82.74,86,9.17
309,Comodoro Rivadavia,40,AR,1567737620,76,-45.87,-67.48,42.8,10.29
310,Mazamari,62,PE,1567737621,96,-11.33,-74.53,36.93,1.86
311,Torbay,5,CA,1567737623,88,47.66,-52.73,63,16.11
312,Kudahuvadhoo,68,MV,1567737624,72,2.67,72.89,83.73,7.4
313,Terrace,90,CA,1567737626,59,54.52,-128.61,66.2,3.36
315,Sayyan,85,YE,1567737627,48,15.17,44.32,73.29,3.04
316,Aswan,26,EG,1567737629,28,24.09,32.9,82.94,8.68
317,Sawtell,0,AU,1567737630,54,-30.38,153.1,84.99,16.11
318,Dakar,20,SN,1567737594,83,14.69,-17.45,80.6,3.36
319,Paraiso,20,BR,1567737633,88,-0.03,-51.17,82.4,8.05
320,La Seyne-sur-Mer,0,FR,1567737634,37,43.1,5.88,68,9.17
322,Lavrentiya,100,RU,1567737615,81,65.58,-170.99,47.37,4.07
323,Traverse City,75,US,1567737638,77,44.76,-85.62,64.4,11.92
324,Chicama,2,PE,1567737639,88,-7.84,-79.15,62.6,9.17
325,Bonavista,0,CA,1567737418,84,48.65,-53.11,59,13
326,Male,0,UA,1567737642,96,50.74,33.7,57.07,5.19
327,Lazaro Cardenas,75,MX,1567737643,50,28.39,-105.62,77,4.7
329,Karasjok,100,NO,1567737645,100,69.47,25.52,46.4,6.93
330,Port Victoria,14,AU,1567737647,69,-34.5,137.49,54.34,33.08
331,Dharchula,99,IN,1567737648,92,29.85,80.53,56.91,2.15
332,San Cristobal,68,HN,1567737649,87,14.68,-86.92,67.73,6.2
333,Kvitok,64,RU,1567737651,96,56.08,98.48,45.9,5.66
334,Kashan,0,IR,1567737652,26,33.99,51.44,71.6,2.24
335,Birnin Kebbi,94,NG,1567737654,78,12.45,4.2,77.52,7.65
336,Fort Frances,90,CA,1567737655,87,48.61,-93.4,60.8,10.29
337,Teahupoo,75,PF,1567737510,61,-17.83,-149.27,80.6,12.75
338,Whitehorse,40,CA,1567737609,31,60.72,-135.06,64.4,8.05
339,Bambous Virieux,40,MU,1567737627,93,-20.34,57.76,68,4.7
340,Pointe Michel,71,DM,1567737661,74,15.25,-61.38,81.34,2.91
341,Ponta do Sol,72,BR,1567737644,87,-20.63,-46,63.45,8.37
342,Ughelli,100,NG,1567737664,94,5.49,6,74.73,1.92
343,Arlit,14,NE,1567737665,33,18.74,7.39,91.62,5.14
344,Iquique,90,CL,1567737489,72,-20.22,-70.14,60.8,4.7
345,Matehuala,100,MX,1567737668,78,23.65,-100.64,63.91,12.62
346,Paso de los Toros,85,UY,1567737669,90,-32.81,-56.52,43.39,9.95
347,Laguna,40,BZ,1567737671,83,16.17,-88.94,82.4,2.8
348,Mount Isa,0,AU,1567737672,15,-20.73,139.49,91.4,8.05
349,Prainha,2,BR,1567737674,77,-1.8,-53.48,79.39,4.9
350,Beringovskiy,81,RU,1567737675,67,63.05,179.32,52.59,3.22
352,Broome,91,GB,1567737677,87,52.47,1.45,53.01,9.17
353,Atasu,100,KZ,1567737626,72,48.68,71.64,51.76,22.62
354,Coquimbo,0,CL,1567737630,81,-29.95,-71.34,51.8,4.7
355,Uttarkashi,12,IN,1567737681,84,30.73,78.44,68.11,1.61
356,Ko Samui,40,TH,1567737567,70,9.54,99.94,86,2.24
358,Vila Velha,75,BR,1567737684,74,-3.71,-38.6,80.6,9.17
359,Severo-Kurilsk,100,RU,1567737686,98,50.68,156.12,50.92,15.57
360,Portland,1,US,1567737537,82,43.66,-70.25,57.2,2.21
361,Bebedouro,100,BR,1567737689,76,-20.95,-48.48,65.62,16.8
362,Vilhena,0,BR,1567737690,33,-12.74,-60.15,77.88,1.05
363,Birjand,0,IR,1567737692,29,32.86,59.22,60.8,6.93
364,Gengenbach,0,DE,1567737693,67,48.4,8.02,57.2,6.93
365,Lamu,85,CN,1567737694,53,35.77,102.37,65.41,3.27
366,Lagoa,0,PT,1567737696,73,37.14,-8.45,73.99,5.82
367,Monforte de Lemos,3,ES,1567737697,82,42.52,-7.51,54,4.14
368,Birao,99,CF,1567737699,95,10.3,22.78,68.94,6.08
369,Bayir,0,TR,1567737700,82,37.27,28.22,66.2,1.12
370,Blenheim,100,NZ,1567737702,82,-41.52,173.96,53.01,3
371,Balkhash,20,KZ,1567737703,58,46.84,74.98,53.6,15.66
372,Okhotsk,0,RU,1567737704,38,59.36,143.24,64.13,19.55
374,Codrington,0,AU,1567737706,28,-28.95,153.24,89.6,8.05
375,Andros Town,40,BS,1567737708,83,24.73,-77.79,82.99,5.82
376,Sangar,0,RU,1567737709,47,63.92,127.47,57.11,2.37
377,Nemuro,75,JP,1567737711,69,43.32,145.57,75.2,3.36
378,Nangomba,40,TZ,1567737712,95,-10.9,38.52,66.16,3.27
379,Alofi,40,NU,1567737713,83,-19.06,-169.92,80.6,8.05
380,Kranuan,75,TH,1567737715,94,16.71,103.08,78.8,3.36
381,Saint-Louis,2,SN,1567737716,86,16.03,-16.5,80.28,10.58
383,Warri,100,NG,1567737718,89,5.52,5.75,76.46,8.25
384,Manggar,39,ID,1567737720,52,-2.88,108.27,87.57,9.46
385,Chegdomyn,0,RU,1567737721,56,51.13,133.04,76.05,1.86
386,Mandawar,12,IN,1567737722,77,29.49,78.13,84.36,6.11
387,Zhigansk,100,RU,1567737724,58,66.77,123.37,49.86,4.83
388,Nikolayevka,0,RU,1567737725,58,46.73,38.57,68.81,21.52
389,Deep River,90,CA,1567737727,72,46.1,-77.49,60.8,3.36
390,Hualmay,32,PE,1567737728,92,-11.1,-77.61,60.19,11.5
391,Saint Anthony,1,US,1567737730,32,43.97,-111.68,84.2,8.08
392,Puerto Morazan,28,NI,1567737731,80,12.85,-87.17,79.63,2.15
393,Lasa,40,CY,1567737733,78,34.92,32.53,75.2,3.36
394,Ahipara,100,NZ,1567737734,100,-35.17,173.16,55,39.59
396,Victoria,75,BN,1567737538,84,5.28,115.24,86,3.36
397,Sibolga,37,ID,1567737737,80,1.74,98.78,81.12,7.05
398,Port Hardy,75,CA,1567737693,82,50.7,-127.42,59,5.82
400,Lata,74,IN,1567737740,83,30.78,78.62,50.29,4
401,Talara,0,PE,1567737664,91,-4.58,-81.27,62.26,13.15
402,Willowmore,1,ZA,1567737743,94,-33.3,23.49,38.39,3
404,Mangrol,26,IN,1567737745,71,25.33,76.51,87.28,5.88
405,Vila Franca do Campo,75,PT,1567737619,72,37.72,-25.43,71.01,9.17
406,Thunder Bay,90,CA,1567737748,100,48.41,-89.26,55.4,6.93
407,Lubango,2,AO,1567737749,94,-14.92,13.49,57.34,1.74
408,Kedrovyy,0,RU,1567737750,76,56.17,91.82,53.6,2.24
409,Fare,89,PF,1567737752,77,-16.7,-151.02,74.41,24.16
410,Moose Factory,1,CA,1567737753,87,51.26,-80.61,46.4,5.82
411,Barcelos,100,BR,1567737755,84,-0.97,-62.93,77.07,2.06
412,Rio Gallegos,0,AR,1567737756,64,-51.62,-69.22,39.2,10.29
413,Kunming,90,CN,1567737758,88,25.04,102.71,73.99,8.95
414,Penzance,100,GB,1567737759,82,50.12,-5.53,57.99,14.99
416,Tahoua,34,NE,1567737761,66,14.89,5.26,82.4,16.08
417,Yakeshi,12,CN,1567737762,64,49.28,120.73,71.15,7.85
418,Dingle,34,PH,1567737764,62,11,122.67,87.98,11.36
419,Baric,0,RS,1567737765,87,44.65,20.26,62.01,3.36
421,Marawi,94,PH,1567737767,78,8,124.29,84,4
422,Lorengau,76,PG,1567737649,82,-2.02,147.27,80.24,11.18
423,Viedma,100,AR,1567737770,79,-40.81,-62.99,41.52,9.26
424,Rundu,0,NA,1567737771,29,-17.91,19.77,66.2,1.12
426,Knysna,0,ZA,1567737773,75,-34.04,23.05,46.4,6.93
428,Leamington,1,CA,1567737752,72,42.05,-82.6,64.99,3.36
429,Saldanha,0,PT,1567737776,63,41.42,-6.55,55.58,6.8
430,Si Bun Ruang,100,TH,1567737777,77,16.97,102.28,82.72,1.34
431,Margate,75,AU,1567737779,76,-43.03,147.26,52,6.93
432,Casma,16,PE,1567737780,94,-9.47,-78.3,59.47,10.96
433,Belmonte,1,PT,1567737782,53,40.36,-7.35,66,8.9
434,Mogapi,1,BW,1567737783,88,-22.32,27.84,57.54,16.69
435,Seydi,100,NE,1567737785,55,13.34,7.75,76.57,10.67
436,Astaneh-ye Ashrafiyeh,90,IR,1567737786,100,37.26,49.94,69.8,4.7
437,College,1,US,1567737788,42,64.86,-147.8,66.2,1.5
438,Dombarovskiy,95,RU,1567737789,82,50.76,59.54,51.06,9.08
439,Goderich,26,CA,1567737790,74,43.74,-81.71,64.99,1.01
440,Ushtobe,67,KZ,1567737792,39,45.25,77.98,69.51,15.12
441,San Jose,90,HN,1567737793,45,14.25,-87.96,84.2,3.36
442,Karwar,100,IN,1567737795,85,14.8,74.13,80.13,15.75
443,Angra dos Reis,90,BR,1567737796,88,-23.01,-44.32,64.4,1.3
445,San Ramon de la Nueva Oran,34,AR,1567737798,68,-23.13,-64.33,53.13,2.62
446,Farah,0,AF,1567737799,26,32.37,62.11,72.01,9.1
447,Havelock,90,US,1567737801,83,34.88,-76.9,79,18.34
448,Biscarrosse,0,FR,1567737802,82,44.41,-1.18,59,8.05
449,Kamenka,0,MD,1567737804,91,48.03,28.7,46.99,2.89
450,Baykit,0,RU,1567737805,43,61.68,96.39,47.75,3.53
451,Sorong,75,ID,1567737807,62,-0.86,131.25,85.86,9.69
452,Mirnyy,92,RU,1567737808,86,56.57,36.46,55.63,2.8
453,Port Macquarie,0,AU,1567737606,36,-31.43,152.91,87.01,6.93
454,Hit,0,IQ,1567737811,29,33.64,42.83,82.47,15.57
455,Solnechnyy,72,RU,1567737812,64,50.72,136.64,73.08,1.77
457,Ostersund,65,SE,1567737814,81,63.18,14.64,45,11.41
458,Mujiayingzi,4,CN,1567737816,30,42.12,118.78,78.06,8.57
459,Tahlequah,1,US,1567737817,94,35.92,-94.97,81,1.57
460,Amboasary,20,MG,1567737818,88,-25.04,46.38,66.2,3.74
461,Kentau,0,KZ,1567737820,41,43.52,68.5,58.03,11.14
462,Bartlesville,1,US,1567737754,78,36.75,-95.98,82,3.36
463,Grand Gaube,40,MU,1567737703,93,-20.01,57.66,68,4.7
464,Mount Pleasant,1,US,1567737736,65,33.16,-94.97,82.4,2.77
466,Koulamoutou,91,GA,1567737826,97,-1.13,12.47,70.25,1.81
467,Panlaitan,38,PH,1567737827,80,12.12,119.85,83.64,16.69
468,Vao,59,EE,1567737829,92,59.1,26.19,54.43,9.33
469,Heihe,20,RU,1567737830,68,50.24,127.51,69.8,2.24
470,La Ronge,5,CA,1567737658,71,55.1,-105.3,57.2,6.93
472,Kovdor,57,RU,1567737833,97,67.56,30.47,48.69,5.19
473,Mangan,88,IN,1567737834,72,27.5,88.54,65.91,1.66
474,Humaita,0,AR,1567737836,71,-24.93,-65.37,55.4,2.15
475,Todos Santos,75,MX,1567737837,78,23.45,-110.23,86,10.29
476,Oistins,75,BB,1567737839,88,13.07,-59.53,80.6,3.36
477,Meiganga,96,CM,1567737840,95,6.52,14.29,64.67,1.72
478,Moa,50,CU,1567737842,97,20.66,-74.95,70.63,3.83
480,Nabire,7,ID,1567737843,55,-3.36,135.5,83.84,6.82
481,Mandera,97,ET,1567737845,62,3.94,41.86,74.75,7.9
482,Prieska,0,ZA,1567737846,68,-29.67,22.74,46.9,19.71
483,Olga,1,US,1567737848,48,34.11,-118.17,89.6,3.36
485,Tabou,92,CI,1567737687,92,4.42,-7.36,74.61,4
486,Havoysund,75,NO,1567737851,93,71,24.66,46.4,23.04
487,Tuatapere,48,NZ,1567737852,62,-46.13,167.69,50,11.01
491,Naifaru,84,MV,1567737855,79,5.44,73.37,82.44,9.8
492,Te Anau,86,NZ,1567737856,74,-45.41,167.72,42.3,6.22
493,Ixtapa,75,MX,1567737858,74,20.71,-105.21,86,2.24
494,Luderitz,0,NA,1567737692,71,-26.65,15.16,55.4,5.82
495,Hambantota,40,LK,1567737860,100,6.12,81.12,80.6,5.82
496,Hasaki,40,JP,1567737862,70,35.73,140.83,89.6,6.93
499,Olesnica,0,PL,1567737885,76,51.21,17.39,55,9.17
500,Eureka,90,US,1567737887,82,40.8,-124.16,64.99,2.06
501,Coahuayana,100,MX,1567737888,86,18.62,-100.35,74.91,1.77
502,Cuamba,73,MZ,1567737889,89,-14.8,36.54,59.29,3.78
503,The Pas,90,CA,1567737891,93,53.82,-101.24,57.2,6.93
504,Souillac,0,FR,1567737892,76,45.6,-0.6,54,6.93
505,Kargat,81,RU,1567737894,82,55.19,80.28,51.03,15.35
506,Xuanhua,0,CN,1567737895,35,40.61,115.04,79.84,3.29
507,Orotukan,100,RU,1567737897,91,62.26,151.67,43.9,2.73
508,Bathsheba,75,BB,1567737898,88,13.22,-59.52,80.6,3.36
509,Bata,40,GQ,1567737900,94,1.87,9.77,78.8,3.36
510,Shipunovo,100,RU,1567737901,52,52.22,82.26,57.47,11.81
511,Owando,77,CG,1567737903,94,-0.49,15.91,70.43,2.15
512,Aransas Pass,1,US,1567737904,88,27.91,-97.15,84.2,4.7
513,Najran,0,SA,1567737905,19,17.54,44.22,78.8,5.82
514,Sanchazi,75,CN,1567737907,78,30.43,103.62,81,2.24
515,Talnakh,75,RU,1567737908,100,69.49,88.39,50,15.66
516,Phan Thiet,33,VN,1567737648,68,10.93,108.1,84.36,12.03
517,Saint-Denis,0,FR,1567737911,81,48.94,2.36,54,2.24
518,Zaozerne,67,UA,1567737912,81,51.37,23.94,55.49,4.18
519,Hamilton,75,CA,1567737914,82,43.26,-79.87,66.2,3.36
520,Vangaindrano,0,MG,1567737915,95,-23.35,47.6,62.01,2.98
522,Altay,32,CN,1567737917,31,47.83,88.13,56.1,4
523,Urengoy,100,RU,1567737918,75,65.96,78.37,53.71,10.69
524,Khasan,100,RU,1567737920,89,42.43,130.64,70.97,3.22
525,Ca Mau,57,VN,1567737786,68,9.18,105.15,85.86,7.81
527,Cayhagan,28,PH,1567737923,78,9.67,122.43,83.17,12.97
528,Gunjur,40,GM,1567737924,94,13.18,-16.76,77,4.7
529,Nuevitas,75,CU,1567737926,94,21.55,-77.27,78.8,4.7
530,Buba,100,GW,1567737927,97,11.59,-14.99,73.94,1.86
531,Los Llanos de Aridane,100,ES,1567737929,78,28.66,-17.92,73.4,13.87
532,Hervey Bay,0,AU,1567737930,16,-25.3,152.85,88,18.34
533,Faya,0,SA,1567737682,33,18.39,42.45,62.6,1.66
534,Phalombe,100,MW,1567737933,58,-15.81,35.65,57.69,5.41
535,General Roca,0,AR,1567737705,60,-39.03,-67.58,41,5.82
536,Fasa,0,IR,1567737936,28,28.94,53.65,69.8,4.7
537,Jinchang,0,CN,1567737937,40,38.52,102.19,72.59,6.85
538,Lander,75,US,1567737758,24,42.83,-108.73,84,8.05
539,Plainview,1,US,1567737940,53,34.18,-101.71,84.2,4.7
540,Oyek,75,RU,1567737941,82,52.59,104.46,55.4,2.24
542,Pedro II,33,BR,1567737943,88,-4.43,-41.45,70.5,1.77
543,Tezu,71,IN,1567737945,63,27.93,96.16,82.78,2.73
545,Pali,12,IN,1567737946,67,25.77,73.33,87.98,3.2
546,Mitu,0,IR,1567737948,36,36.2,46.09,54.66,2.3
547,Shingu,75,JP,1567737686,62,33.72,135.99,87.8,11.41
548,Sur,95,OM,1567737951,53,22.57,59.53,85.48,2.19
549,Bulaevo,27,KZ,1567737952,79,54.91,70.44,50.97,19.82
550,Zalari,0,RU,1567737954,61,53.57,102.52,56.59,6.73
551,Birobidzhan,85,RU,1567737955,79,48.79,132.93,72.18,5.82
552,Belaya Gora,8,RU,1567737956,41,68.54,146.19,49.98,6.91
553,Solenzo,100,BF,1567737958,85,12.18,-4.08,71.6,1.92
554,Mundwa,58,IN,1567737959,62,27.06,73.82,89.24,4.25
555,Alyangula,79,AU,1567737961,45,-13.85,136.42,84.2,8.05
556,Ayabaca,0,PE,1567737962,79,-4.64,-79.72,60.55,1.52
557,Sehwan,40,PK,1567737964,74,26.43,67.86,84.2,4.7
558,Iraray,95,PH,1567737965,69,8.99,118.05,85.44,6.22
559,Whitianga,20,NZ,1567737967,78,-36.83,175.7,59,5.99
561,Ilo,99,PE,1567737968,84,-17.65,-71.34,58.32,3.98
562,Mola di Bari,5,IT,1567737970,100,41.06,17.09,69.01,1.12
563,Samana,41,EC,1567737971,99,0.12,-76.97,69.84,2.46
564,Taoudenni,0,ML,1567737973,16,22.68,-3.98,96.66,9.53
565,Kotri,98,PK,1567737974,71,25.36,68.31,86.18,8.77
566,Osoyoos,40,CA,1567737976,57,49.03,-119.47,82.4,5.82
567,Katsuura,20,JP,1567737977,79,33.93,134.5,90,16.11
568,Vostok,82,RU,1567737978,54,46.45,135.83,78.78,5.03
570,Kuching,75,MY,1567737980,70,1.56,110.34,84.2,5.82
571,Gamba,15,CN,1567737982,60,28.28,88.52,45.95,5.12
572,Darhan,100,MN,1567737983,74,49.49,105.92,51.98,14.41
573,Brigantine,90,US,1567737985,68,39.41,-74.36,70,5.82
574,Novoagansk,100,RU,1567737986,72,61.94,76.66,53.87,6.44
575,Grand Forks,1,US,1567737795,93,47.91,-97.06,61,7.65
576,Playas,2,EC,1567737731,84,-2.64,-80.39,64,7
577,Zyryanka,100,RU,1567737990,55,65.73,150.89,51.66,17.07
578,Salgado,75,BR,1567737991,83,-11.03,-37.48,77,14.99
579,Aldan,100,RU,1567737993,92,58.61,125.39,52.18,5.21
580,Guane,92,CU,1567737994,64,22.2,-84.09,85.73,4.29
581,Saint-Leu,0,RE,1567737996,68,-21.15,55.28,69.8,6.93
582,Hami,0,CN,1567737997,27,42.84,93.51,77.29,2.84
583,Lipin Bor,79,RU,1567737999,97,60.26,37.97,49.26,5.82
584,Boissevain,1,CA,1567738000,100,49.23,-100.06,60.01,6.93
585,Tura,0,RU,1567738002,44,64.27,100.22,48.4,3.42
586,Igarka,100,RU,1567738003,76,67.47,86.57,53.1,9.06
587,Mugumu,79,TZ,1567738004,66,-1.84,34.67,67.62,6.96
588,Kahului,40,US,1567738006,49,20.89,-156.47,89.6,25.28
589,Carora,100,VE,1567738007,94,10.17,-70.08,70.48,3.31
590,Asmara,80,ER,1567738009,81,15.34,38.93,72.01,1.5
591,Elmira,1,US,1567738010,93,42.09,-76.81,57.2,1.48
592,Coari,55,BR,1567738012,86,-4.09,-63.14,77.43,1.16
593,Celestun,0,MX,1567738013,82,20.87,-90.4,83.25,21.32
594,Lermontovka,66,RU,1567738014,78,47.15,134.34,75.34,6.4
595,Fukuma,75,JP,1567738016,55,33.77,130.47,93,12.75
596,Sao Gabriel da Cachoeira,94,BR,1567738017,98,-0.13,-67.09,73.31,4.07
597,Banda Aceh,35,ID,1567738019,82,5.56,95.32,82.33,15.95
598,Millinocket,1,US,1567738020,71,45.66,-68.71,55.4,3.6
599,Wamba,100,CD,1567738022,98,2.14,27.99,65.34,2.39
600,San Lorenzo,52,HN,1567738023,91,13.43,-87.45,75.87,2.48
601,Chimbote,0,PE,1567738025,92,-9.08,-78.59,60.1,11.34
603,Ambon,0,FR,1567738026,93,47.55,-2.56,53.01,6.93
605,Llanes,100,ES,1567738028,10,43.42,-4.75,69.01,10.65
606,Kamaishi,40,JP,1567738030,74,39.28,141.86,82.4,3.36
607,Kushiro,75,JP,1567738031,78,43.11,144.15,73.4,4.7
608,Poland,1,US,1567738033,93,43.23,-75.06,57.2,4.45
609,Polson,1,US,1567738034,28,47.69,-114.16,73.4,4.7
611,Petropavl,0,KZ,1567738036,87,54.87,69.13,48.2,13.42
613,Takapau,100,NZ,1567738038,89,-40.02,176.35,48.99,1.01
